City,Lat,Lng,Max Temp,Humidity,Cloudiness,Wind Speed,Country,Date
butaritari,3.0707,172.7902,81.16,73,56,8.1,KI,1635036696
bahia blanca,-38.7196,-62.2724,48.67,59,0,10.94,AR,1635037136
luderitz,-26.6481,15.1594,56.61,71,0,16.96,NA,1635036779
maturin,9.75,-63.1767,72.81,97,79,4.92,VE,1635037137
wajid,3.8093,43.2471,73.51,88,16,9.86,SO,1635037137
barrow,71.2906,-156.7887,28.42,86,90,11.5,US,1635037138
port macquarie,-31.4333,152.9167,83.89,62,14,18.16,AU,1635037138
champerico,14.3,-91.9167,84.78,78,71,8.3,GT,1635037138
dikson,73.5069,80.5464,8.91,87,100,14.03,RU,1635037139
pisco,-13.7,-76.2167,60.85,82,0,18.41,PE,1635037139
belaya gora,68.5333,146.4167,-5.35,88,64,4.56,RU,1635037140
cabo san lucas,22.8909,-109.9124,83.12,78,10,13.91,MX,1635037140
teguldet,57.3064,88.1667,42.58,86,100,15.35,RU,1635037140
yagodnoye,62.55,149.6667,-1.53,93,19,2.24,RU,1635037141
saint-philippe,-21.3585,55.7679,71.26,84,40,13.22,RE,1635037142
ribeira grande,38.5167,-28.7,67.35,63,29,11.77,PT,1635037142
puerto ayora,-0.7393,-90.3518,69.3,87,90,8.3,EC,1635037143
lavrentiya,65.5833,-171.0,24.89,83,100,9.62,RU,1635037143
bethel,41.3712,-73.414,51.94,76,97,4.97,US,1635036901
port elizabeth,-33.918,25.5701,57.49,77,0,16.11,ZA,1635037144
ushuaia,-54.8,-68.3,35.26,80,90,18.41,AR,1635037144
mesen,50.7658,2.8976,42.33,88,16,6.98,BE,1635037145
mataura,-46.1927,168.8643,64.89,61,100,1.07,NZ,1635037145
torbay,47.6666,-52.7314,58.53,97,90,11.5,CA,1635037146
carnarvon,-24.8667,113.6333,75.27,64,0,11.5,AU,1635037146
qaanaaq,77.484,-69.3632,-0.89,58,0,7.76,GL,1635037147
vaini,-21.2,-175.2,78.96,73,20,11.5,TO,1635037147
khatanga,71.9667,102.5,8.4,91,98,15.88,RU,1635037147
norman wells,65.282,-126.8329,42.84,61,40,0.0,CA,1635037148
tuktoyaktuk,69.4541,-133.0374,30.2,86,90,8.05,CA,1635037148
hobart,-42.8794,147.3294,52.07,71,75,4.0,AU,1635037128
ostrovnoy,68.0531,39.5131,26.73,89,100,18.28,RU,1635037149
athens,37.9795,23.7162,64.81,86,13,3.0,GR,1635037075
isangel,-19.55,169.2667,80.71,78,75,9.22,VU,1635037149
dunedin,-45.8742,170.5036,58.8,76,98,8.01,NZ,1635037149
uporovo,56.3109,66.2693,41.54,91,7,10.6,RU,1635037150
avarua,-21.2078,-159.775,75.25,57,75,13.8,CK,1635037150
tasiilaq,65.6145,-37.6368,29.05,95,100,8.16,GL,1635036964
rikitea,-23.1203,-134.9692,75.0,80,100,19.13,PF,1635037151
tamworth,52.634,-1.6959,51.69,75,100,7.0,GB,1635037151
busselton,-33.65,115.3333,71.04,61,100,4.94,AU,1635037151
kapaa,22.0752,-159.319,78.75,80,60,4.0,US,1635036896
bredasdorp,-34.5322,20.0403,49.32,87,44,4.61,ZA,1635037152
bluff,-46.6,168.3333,52.7,91,100,3.27,NZ,1635037152
morlaix,48.5833,-4.0,50.29,81,90,10.36,FR,1635037152
meadow lake,34.8014,-106.5436,64.51,20,99,7.0,US,1635037153
yellowknife,62.456,-114.3525,41.49,85,75,13.8,CA,1635036907
bathsheba,13.2167,-59.5167,83.01,69,40,23.02,BB,1635037153
hamilton,39.1834,-84.5333,54.54,83,100,2.1,US,1635037062
camacha,33.0833,-16.3333,65.62,56,40,9.22,PT,1635037154
george town,5.4112,100.3354,78.96,90,20,1.99,MY,1635037088
rocha,-34.4833,-54.3333,53.62,96,57,7.58,UY,1635037154
balkhash,46.844,74.9804,41.07,64,0,3.22,KZ,1635037155
lima,-12.0432,-77.0282,62.92,79,90,16.11,PE,1635036856
clyde river,70.4692,-68.5914,18.3,82,95,13.24,CA,1635037155
mar del plata,-38.0023,-57.5575,52.97,69,40,1.99,AR,1635036908
sao jose da coroa grande,-8.8978,-35.1478,78.19,84,17,10.92,BR,1635037156
constitucion,-35.3333,-72.4167,50.68,87,0,13.89,CL,1635037156
red wing,44.5625,-92.5338,40.01,77,1,0.0,US,1635037157
gayny,60.3071,54.3241,34.7,94,45,6.06,RU,1635037157
new norfolk,-42.7826,147.0587,49.8,76,100,3.0,AU,1635037157
nyurba,63.2842,118.3319,33.46,77,100,11.65,RU,1635037158
jamestown,42.097,-79.2353,44.44,95,90,1.99,US,1635037158
sawakin,19.1059,37.3321,79.27,76,0,5.84,SD,1635037159
mount gambier,-37.8333,140.7667,58.91,51,75,12.66,AU,1635037044
pangnirtung,66.1451,-65.7125,23.7,86,100,5.5,CA,1635037034
ransang,8.9603,117.5828,81.3,73,87,3.04,PH,1635037159
pampa,35.5362,-100.9599,74.03,43,1,9.22,US,1635037160
pareora,-44.4871,171.2132,63.18,74,62,7.09,NZ,1635037160
bow island,49.8668,-111.3684,48.16,71,99,5.75,CA,1635037160
arraial do cabo,-22.9661,-42.0278,73.36,88,40,19.57,BR,1635037036
hermanus,-34.4187,19.2345,48.79,69,36,3.38,ZA,1635037161
bonga,7.2833,36.2333,55.47,78,3,1.68,ET,1635037161
sangar,63.9242,127.4739,18.63,94,100,10.89,RU,1635037162
ulladulla,-35.35,150.4667,65.41,62,72,6.17,AU,1635037162
perevolotskiy,51.8763,54.1938,49.8,89,100,13.2,RU,1635037162
severo-kurilsk,50.6789,156.125,40.87,85,66,12.17,RU,1635037163
vakhrushevo,55.2317,61.7173,43.18,81,0,6.71,RU,1635037163
nizhniy kuranakh,58.8353,125.4869,37.56,86,100,7.2,RU,1635037164
port alfred,-33.5906,26.891,58.05,70,4,15.99,ZA,1635037022
chuy,-33.6971,-53.4616,56.12,93,100,6.49,UY,1635037164
albany,42.6001,-73.9662,45.25,74,96,1.01,US,1635037042
padang,-0.9492,100.3543,77.05,86,96,5.44,ID,1635037088
ilulissat,69.2167,-51.1,14.09,97,100,3.13,GL,1635037165
bambous virieux,-20.3428,57.7575,73.65,83,75,10.36,MU,1635037165
dalvik,65.9702,-18.5286,30.13,96,100,2.04,IS,1635037166
kodiak,57.79,-152.4072,43.29,87,99,20.78,US,1635037166
castro,-24.7911,-50.0119,61.83,96,100,4.59,BR,1635037167
east london,-33.0153,27.9116,59.47,67,14,18.3,ZA,1635036951
liverpool,53.4106,-2.9779,51.82,77,75,5.99,GB,1635037140
provideniya,64.3833,-173.3,25.54,77,100,8.43,RU,1635037167
cabedelo,-6.9811,-34.8339,79.47,79,34,13.29,BR,1635037068
novoagansk,61.9449,76.6625,38.01,90,100,11.27,RU,1635037168
leningradskiy,69.3833,178.4167,11.08,93,100,9.15,RU,1635037168
kaitangata,-46.2817,169.8464,57.87,70,100,3.96,NZ,1635037041
kavieng,-2.5744,150.7967,85.98,66,17,12.15,PG,1635037169
berlevag,70.8578,29.0864,36.75,65,100,23.96,NO,1635037136
yeppoon,-23.1333,150.7333,87.58,65,98,10.56,AU,1635037169
zyryanka,65.75,150.85,-0.45,78,10,9.6,RU,1635037170
dhidhdhoo,6.8833,73.1,81.64,78,100,13.96,MV,1635037170
suluq,31.6682,20.2521,71.31,38,13,11.59,LY,1635037170
belmonte,-15.8631,-38.8828,75.7,91,100,3.47,BR,1635037171
slavutych,51.5196,30.7343,44.2,79,100,7.0,UA,1635037171
sao filipe,14.8961,-24.4956,79.23,68,6,9.62,CV,1635037171
mount isa,-20.7333,139.5,92.97,27,0,8.05,AU,1635037172
takoradi,4.8845,-1.7554,76.8,88,67,4.34,GH,1635037172
erzin,36.9559,36.2,54.12,59,0,2.59,TR,1635037064
kawalu,-7.3817,108.2082,79.54,78,89,2.75,ID,1635037173
caravelas,-17.7125,-39.2481,75.31,83,100,4.0,BR,1635037173
nago,26.5881,127.9761,73.85,70,100,6.82,JP,1635037173
faanui,-16.4833,-151.75,78.51,78,88,14.18,PF,1635037043
kruisfontein,-34.0033,24.7314,52.03,72,5,8.72,ZA,1635037174
kathmandu,27.7167,85.3167,62.82,94,40,2.3,NP,1635037174
catio,11.2833,-15.25,79.2,84,100,3.31,GW,1635037175
saint-joseph,-21.3667,55.6167,70.59,82,19,7.09,RE,1635037048
marigot,18.0667,-63.0833,82.18,69,20,6.91,MF,1635037175
valparaiso,-33.0393,-71.6273,58.64,51,0,9.22,CL,1635037026
ivanovka,42.8878,75.085,49.78,35,1,3.44,KG,1635037176
forest,37.3638,-79.2897,51.89,82,8,2.04,US,1635037176
baracoa,20.3467,-74.4958,78.48,83,17,1.79,CU,1635037177
punta arenas,-53.15,-70.9167,35.71,87,20,18.41,CL,1635037177
conceicao da barra,-18.5933,-39.7322,74.03,84,49,5.91,BR,1635037177
san quintin,30.4833,-115.95,63.75,72,8,19.01,MX,1635037178
mbanza-ngungu,-5.25,14.8667,69.35,96,100,3.53,CD,1635037178
hilo,19.7297,-155.09,77.88,85,43,1.99,US,1635037162
broken hill,-31.95,141.4333,60.51,48,0,14.97,AU,1635036976
naze,28.3667,129.4833,65.32,63,98,21.12,JP,1635037179
russell,32.3502,-85.1999,55.15,87,1,0.0,US,1635037180
beitbridge,-22.2167,30.0,86.85,27,73,4.09,ZW,1635037180
kaeo,-35.1,173.7833,65.32,98,65,6.2,NZ,1635037180
nanortalik,60.1432,-45.2371,35.51,71,15,19.55,GL,1635037181
manzanillo,20.3433,-77.1167,77.2,84,83,3.51,CU,1635037181
la ronge,55.1001,-105.2842,37.65,70,75,16.11,CA,1635037126
caceres,39.522,-6.3748,50.81,51,3,2.86,ES,1635037182
apatou,5.155,-54.3472,74.01,99,99,2.26,GF,1635037182
atuona,-9.8,-139.0333,78.19,79,9,17.52,PF,1635037113
atar,20.5169,-13.0499,78.94,18,0,7.7,MR,1635037183
nemuro,43.3236,145.575,46.83,65,25,15.9,JP,1635037183
lianzhou,24.7811,112.3825,62.42,68,0,6.17,CN,1635037183
poum,-20.2333,164.0167,74.21,77,16,7.4,NC,1635037184
tura,25.5198,90.2201,66.51,80,44,2.86,IN,1635037184
yar-sale,66.8333,70.8333,27.48,96,90,9.69,RU,1635037185
vezirkopru,41.1436,35.4547,43.29,64,100,0.92,TR,1635037185
sinnamary,5.3833,-52.95,78.21,87,82,10.31,GF,1635037186
suntar,62.1444,117.6319,34.68,74,16,10.22,RU,1635037186
guerrero negro,27.9769,-114.0611,67.28,76,0,17.25,MX,1635037186
katsuura,35.1333,140.3,59.13,53,22,6.49,JP,1635037187
bonavista,48.6499,-53.1147,53.6,100,100,4.27,CA,1635037187
merauke,-8.4667,140.3333,86.45,57,45,9.01,ID,1635037188
charters towers,-20.1,146.2667,90.75,30,58,10.11,AU,1635037188
pingliang,35.5392,106.6861,46.56,76,71,1.12,CN,1635037188
te anau,-45.4167,167.7167,57.36,78,100,2.06,NZ,1635036816
lengshuitan,26.4111,111.5956,60.35,62,0,5.03,CN,1635037189
hermosillo,29.0667,-110.9667,83.7,31,0,11.52,MX,1635037039
georgetown,5.4112,100.3354,78.96,90,20,1.99,MY,1635037088
geraldton,-28.7667,114.6,70.21,56,0,1.14,AU,1635037043
esperance,-33.8667,121.9,62.44,44,2,16.44,AU,1635037177
cayenne,4.9333,-52.3333,78.1,90,91,0.0,GF,1635037190
port lincoln,-34.7333,135.8667,60.01,60,17,11.63,AU,1635037190
babstovo,48.1167,132.4833,48.43,47,0,7.67,RU,1635037190
sandakan,5.8402,118.1179,77.63,94,20,5.01,MY,1635037191
longyearbyen,78.2186,15.6401,17.44,79,0,5.75,SJ,1635037191
laguna,38.421,-121.4238,60.13,73,75,1.01,US,1635037191
narsaq,60.9167,-46.05,28.76,54,31,5.14,GL,1635037154
bogotol,56.2078,89.5342,38.03,95,100,19.8,RU,1635037192
tiksi,71.6872,128.8694,1.74,95,100,9.78,RU,1635037158
vestmannaeyjar,63.4427,-20.2734,47.23,84,100,16.26,IS,1635037192
aviles,43.5547,-5.9248,54.01,85,0,6.91,ES,1635037193
upernavik,72.7868,-56.1549,18.66,87,100,13.67,GL,1635036910
salaga,8.5508,-0.5188,74.79,89,84,3.58,GH,1635037193
turayf,31.6725,38.6637,57.45,47,0,5.75,SA,1635037193
cidreira,-30.1811,-50.2056,65.17,91,100,9.53,BR,1635037194
regina,50.4501,-104.6178,42.64,53,90,21.85,CA,1635037194
mingshui,36.7167,117.5,59.59,47,53,4.18,CN,1635037195
yeroham,30.9872,34.9314,56.53,83,0,3.87,IL,1635037195
chinna salem,11.65,78.9,76.15,87,94,3.29,IN,1635037195
dieppe,49.75,1.1667,41.07,79,5,7.83,FR,1635037196
affoltern,47.2731,8.4744,35.11,84,5,0.0,CH,1635037196
souillac,-20.5167,57.5167,73.78,83,75,10.36,MU,1635037197
petropavlovsk-kamchatskiy,53.0452,158.6483,37.99,75,40,4.47,RU,1635037197
eureka,40.8021,-124.1637,61.74,73,100,8.99,US,1635037149
rubiataba,-15.1644,-49.8033,77.07,63,100,5.21,BR,1635037197
saskylakh,71.9167,114.0833,6.93,94,100,14.74,RU,1635037198
batemans bay,-35.7167,150.1833,69.51,48,27,4.61,AU,1635037121
fortuna,40.5982,-124.1573,59.94,82,75,7.0,US,1635037099
saint-augustin,51.226,-58.6502,40.8,93,100,13.82,CA,1635037198
nome,64.5011,-165.4064,32.16,80,100,3.2,US,1635037199
kampot,10.6167,104.1833,84.25,83,66,11.54,KH,1635037199
thompson,55.7435,-97.8558,32.16,80,75,3.44,CA,1635036966
shingu,33.7333,135.9833,63.59,44,18,3.67,JP,1635037200
mosquera,4.7059,-74.2302,57.29,100,75,4.61,CO,1635037152
bida,9.0833,6.0167,74.1,88,95,1.66,NG,1635037200
victoria,22.2855,114.1577,68.45,75,24,1.01,HK,1635036908
camocim,-2.9022,-40.8411,79.54,82,55,11.07,BR,1635037202
labuhan,-6.8844,112.2051,84.65,67,58,5.23,ID,1635036966
nurota,40.5614,65.6886,48.29,35,0,5.21,UZ,1635037202
cape town,-33.9258,18.4232,53.26,78,20,4.61,ZA,1635037074
san andres,12.5847,-81.7006,83.07,78,10,12.8,CO,1635037204
mao,39.8885,4.2658,61.36,88,0,9.22,ES,1635037205
soyo,-6.1349,12.3689,77.77,84,100,8.93,AO,1635037206
beringovskiy,63.05,179.3167,13.3,72,3,7.14,RU,1635037023
juneau,58.3019,-134.4197,42.62,96,100,4.54,US,1635037056
monor,47.3513,19.4473,38.25,75,0,2.3,HU,1635037207
vila velha,-20.3297,-40.2925,73.35,88,75,9.22,BR,1635037194
whitehorse,60.7161,-135.0538,41.54,65,75,10.0,CA,1635037018
iqaluit,63.7506,-68.5145,31.69,88,100,11.99,CA,1635037208
great bend,38.3645,-98.7648,71.1,71,0,6.49,US,1635037209
leshukonskoye,64.8989,45.7622,25.09,94,100,4.32,RU,1635037210
lucea,18.451,-78.1736,78.85,75,98,5.17,JM,1635037211
srednebelaya,50.6594,128.0106,37.78,64,10,3.67,RU,1635037211
airai,-8.9266,125.4092,77.18,39,58,1.34,TL,1635037068
hofn,64.2539,-15.2082,45.34,73,100,4.54,IS,1635037148
sistranda,63.7256,8.834,42.76,74,100,15.88,NO,1635037212
verdun,49.25,5.3333,37.47,92,0,6.04,FR,1635037213
pangai,-19.8,-174.35,74.44,73,94,22.35,TO,1635037214
meulaboh,4.1363,96.1285,78.31,83,100,2.08,ID,1635037215
diego de almagro,-26.3667,-70.05,55.42,55,0,2.28,CL,1635037215
juba,4.8517,31.5825,73.24,81,1,2.17,SS,1635037212
vestmanna,62.1564,-7.1664,47.32,100,90,11.5,FO,1635037034
tashigang,27.3331,91.5542,64.65,83,91,1.14,BT,1635037217
alekseyevskoye,55.3071,50.1135,41.68,81,100,13.2,RU,1635037217
manaquiri,-3.3167,-60.35,81.05,82,100,3.69,BR,1635037218
vrangel,42.7297,133.0839,51.76,46,0,7.05,RU,1635037219
marystown,47.1666,-55.1483,57.85,100,100,10.49,CA,1635037220
carson city,39.1638,-119.7674,45.39,62,90,8.01,US,1635037220
elko,41.0002,-115.5012,42.17,81,100,7.0,US,1635037220
bengkulu,-3.8004,102.2655,78.3,84,100,3.15,ID,1635037221
garowe,8.4054,48.4845,73.33,77,26,8.16,SO,1635037221
hambantota,6.1241,81.1185,75.54,100,20,3.44,LK,1635037222
namatanai,-3.6667,152.4333,85.62,68,95,6.82,PG,1635037222
san patricio,28.017,-97.5169,77.36,69,0,9.48,US,1635037222
salinopolis,-0.6136,-47.3561,80.2,83,100,9.55,BR,1635037223
talakan,50.3167,130.3667,42.4,71,1,2.39,RU,1635037223
romny,50.751,33.4747,40.42,69,100,7.76,UA,1635037224
maraa,-1.8333,-65.3667,76.91,90,86,2.91,BR,1635037224
semnan,35.5729,53.3971,50.76,38,0,1.88,IR,1635037224
natal,-5.795,-35.2094,80.82,78,40,13.8,BR,1635037074
kharan,28.5833,65.4167,57.11,17,0,2.3,PK,1635037225
grindavik,63.8424,-22.4338,45.07,100,90,11.5,IS,1635037225
pevek,69.7008,170.3133,9.23,92,100,6.51,RU,1635037226
san fernando,15.0286,120.6898,78.15,87,100,6.06,PH,1635037226
dingle,10.9995,122.6711,82.47,80,59,0.29,PH,1635037227
waverley,-25.7023,28.2591,60.76,24,0,13.33,ZA,1635037227
mariestad,58.7097,13.8237,36.73,79,98,10.67,SE,1635037228
sao joao da barra,-21.6403,-41.0511,72.79,87,4,22.7,BR,1635036939
itajuba,-22.4256,-45.4528,65.93,69,74,3.22,BR,1635037228
sobolevo,54.4299,31.8996,38.03,86,100,13.51,RU,1635037228
hithadhoo,-0.6,73.0833,82.67,70,100,11.97,MV,1635037229
adrar,20.5022,-10.0711,80.56,16,36,8.19,MR,1635037229
pandamatenga,-18.5278,25.627,76.75,47,88,3.06,BW,1635037230
muros,42.7762,-9.0603,48.2,86,0,5.14,ES,1635037230
gourdon,44.75,1.5,43.25,75,0,3.96,FR,1635037230
assiniboia,49.6334,-105.9845,46.35,51,100,14.72,CA,1635037231
chokurdakh,70.6333,147.9167,-2.04,97,100,6.49,RU,1635037232
yulara,-25.2406,130.9889,75.04,22,75,20.71,AU,1635037094
craig,40.5153,-107.5464,47.48,49,100,7.38,US,1635036943
mitsamiouli,-11.3847,43.2844,78.12,80,70,9.24,KM,1635037232
dzhankoy,45.7167,34.4,51.87,79,100,6.67,UA,1635037233
grand-santi,4.25,-54.3833,74.73,97,100,2.95,GF,1635037233
high rock,26.6208,-78.2833,80.64,75,94,11.36,BS,1635037234
itarema,-2.9248,-39.9167,79.9,80,75,13.09,BR,1635037234
mackay,-21.15,149.2,84.58,58,40,11.5,AU,1635037084
awbari,26.5921,12.7805,79.29,17,31,13.98,LY,1635037235
springbok,-29.6643,17.8865,45.75,78,0,6.82,ZA,1635037235
palmer,42.1584,-72.3287,48.25,68,100,2.98,US,1635037236
manokwari,-0.8667,134.0833,83.41,68,49,3.74,ID,1635037236
zyryanskoye,56.8306,86.6258,43.77,81,100,21.14,RU,1635037237
radovan,44.1667,23.6167,50.59,64,76,16.71,RO,1635037237
hualmay,-11.0964,-77.6139,62.87,83,29,11.59,PE,1635037237
nalut,30.3333,10.85,68.77,58,100,7.14,LY,1635036999
neuquen,-38.9516,-68.0591,57.51,36,7,36.26,AR,1635037238
emba,48.8264,58.1442,43.09,40,15,10.16,KZ,1635037238
redlands,34.0556,-117.1825,62.96,74,75,1.99,US,1635037239
cherskiy,68.75,161.3,-3.77,99,91,4.14,RU,1635037178
el carmen,8.5106,-73.4478,68.94,98,100,2.8,CO,1635037239
touros,-5.1989,-35.4608,81.5,81,65,12.97,BR,1635037240
pangody,65.85,74.4859,25.95,89,57,14.43,RU,1635037240
ketchikan,55.3422,-131.6461,43.75,92,100,10.45,US,1635037241
sitka,57.0531,-135.33,42.37,93,100,5.32,US,1635037046
port augusta,-32.5,137.7667,67.71,36,0,10.27,AU,1635037241
kadaya,50.9327,119.2911,33.04,70,0,3.76,RU,1635037242
masuguru,-11.3667,38.4167,73.4,75,87,4.88,TZ,1635037242
kuna,43.4918,-116.4201,51.75,72,1,4.61,US,1635037112
mahebourg,-20.4081,57.7,74.25,72,81,13.8,MU,1635037242
ponta do sol,32.6667,-17.1,67.95,66,14,6.38,PT,1635037243
eyl,7.9803,49.8164,77.13,79,3,7.45,SO,1635037243
klaksvik,62.2266,-6.589,49.12,87,100,14.85,FO,1635037238
phan thiet,10.9333,108.1,79.9,79,100,3.0,VN,1635036996
grand gaube,-20.0064,57.6608,74.37,76,97,7.0,MU,1635037211
faya,18.3851,42.4509,56.19,29,6,4.45,SA,1635037244
luanda,-8.8368,13.2343,74.8,80,100,6.22,AO,1635037244
beian,63.6559,9.5683,42.71,70,75,12.66,NO,1635037245
uyskoye,54.3775,60.0047,43.02,86,100,6.85,RU,1635037245
hasaki,35.7333,140.8333,59.86,48,42,5.12,JP,1635036962
tomatlan,19.9333,-105.25,76.98,94,100,2.37,MX,1635037246
nikolskoye,59.7035,30.7861,33.57,89,78,9.17,RU,1635037044
kutum,14.2,24.6667,73.72,26,57,14.36,SD,1635037246
west lafayette,40.4259,-86.9081,52.03,80,75,2.71,US,1635037246
tyup,42.7276,78.3648,29.68,65,1,2.98,KG,1635037247
igarka,67.4667,86.5833,30.15,97,100,12.86,RU,1635037247
lebu,-37.6167,-73.65,49.8,93,12,6.64,CL,1635037248
owando,-0.4819,15.8999,69.98,98,87,2.48,CG,1635037248
bekovo,52.4663,43.712,38.88,79,3,8.77,RU,1635037249
karasjok,69.4719,25.5112,24.91,86,67,2.68,NO,1635037249
vardo,70.3705,31.1107,35.35,67,61,24.11,NO,1635037249
khandbari,27.3747,87.2039,64.83,85,91,1.43,NP,1635037250
uttarkashi,30.7333,78.45,56.16,57,100,3.78,IN,1635037250
vila franca do campo,37.7167,-25.4333,66.61,82,96,5.39,PT,1635037251
bara,10.3744,10.7288,75.63,83,100,3.56,NG,1635037251
kloulklubed,7.0419,134.2556,86.5,71,14,2.26,PW,1635037067
iskateley,67.6803,53.1512,25.27,90,51,7.36,RU,1635037251
husavik,66.0449,-17.3389,39.94,96,100,4.85,IS,1635037252
tanete,-3.9443,119.7848,86.68,62,13,3.74,ID,1635037252
longhua,23.6137,114.1919,65.3,65,4,4.38,CN,1635037253
huaibei,33.9744,116.7917,58.86,61,100,2.51,CN,1635037253
byron bay,-28.65,153.6167,82.53,40,46,7.94,AU,1635037253
ulaangom,49.9811,92.0667,32.5,51,89,2.64,MN,1635037254
saint george,37.1041,-113.5841,70.0,28,23,1.01,US,1635037199
saint-pierre,-21.3393,55.4781,71.85,77,0,4.61,RE,1635037229
samana,19.2056,-69.3369,78.48,82,89,7.05,DO,1635037255
kupang,-10.1667,123.5833,82.98,78,75,3.44,ID,1635037255
todos santos,23.45,-110.2167,76.57,78,60,7.96,MX,1635037255
passo de camaragibe,-9.2368,-35.4901,80.15,86,11,6.2,BR,1635037256
santa fe,-31.6333,-60.7,59.92,79,1,7.65,AR,1635037209
aparecida do taboado,-20.0867,-51.0936,82.54,49,47,10.56,BR,1635037256
deputatskiy,69.3,139.9,-1.12,98,100,2.86,RU,1635037257
lac du bonnet,50.2536,-96.0612,35.91,72,41,4.79,CA,1635037257
tommot,58.9564,126.2925,37.58,93,100,5.88,RU,1635037257
ixtapa,20.7,-105.2,83.43,84,75,5.75,MX,1635037215
yumen,40.2833,97.2,39.16,37,37,7.02,CN,1635037123
uravakonda,14.95,77.2667,70.9,94,100,1.41,IN,1635037258
ous,60.9058,61.5186,37.33,84,84,7.49,RU,1635037259
saldanha,-33.0117,17.9442,57.49,73,0,8.39,ZA,1635037259
baltasi,56.3462,50.2062,39.22,83,100,7.47,RU,1635037260
luangwa,-15.6167,30.4167,78.62,40,33,3.31,ZM,1635037260
limbuhan,11.8838,124.0501,82.04,76,95,5.59,PH,1635037261
dudinka,69.4058,86.1778,23.38,91,98,8.32,RU,1635037261
quatre cocos,-20.2078,57.7625,74.08,71,90,12.57,MU,1635037182
aksarka,66.5606,67.7975,27.1,84,100,17.2,RU,1635036969
gondanglegi,-7.7479,112.0132,86.31,57,100,7.25,ID,1635037262
kavaratti,10.5669,72.642,81.18,75,60,2.55,IN,1635037263
otane,-39.8833,176.6333,55.69,78,100,3.02,NZ,1635037264
channel-port aux basques,47.5702,-59.1367,56.73,99,100,7.63,CA,1635037264
ternate,0.8,127.4,83.77,70,91,2.89,ID,1635037264
el progreso,15.4,-87.8,82.15,78,75,6.91,HN,1635037265
skibbereen,51.55,-9.2667,55.2,91,11,15.9,IE,1635037265
san cristobal,7.7669,-72.225,69.98,99,100,2.75,VE,1635036991
ferzikovo,54.5191,36.7567,38.84,96,100,13.76,RU,1635037266
inhambane,-23.865,35.3833,73.98,90,0,15.86,MZ,1635037266
borzya,50.3833,116.5167,33.21,67,4,2.93,RU,1635037266
talara,-4.5772,-81.2719,64.78,90,94,15.55,PE,1635037267
tual,-5.6667,132.75,84.2,75,96,13.27,ID,1635037267
lompoc,34.6391,-120.4579,61.02,76,100,5.01,US,1635037263
cockburn town,21.4612,-71.1419,83.16,69,90,19.37,TC,1635037268
ust-nera,64.5667,143.2,5.16,95,85,4.9,RU,1635037268
safaga,26.7292,33.9365,74.75,49,5,18.7,EG,1635037268
biak,-0.9131,122.8766,82.98,64,66,3.22,ID,1635037269
atikokan,48.7555,-91.6216,35.47,76,100,3.91,CA,1635037269
mustafabad,30.8922,73.4989,64.36,89,0,5.99,PK,1635037270
college,64.8569,-147.8028,32.77,76,98,1.79,US,1635037270
haines junction,60.7522,-137.5108,36.32,85,95,4.29,CA,1635037271
megion,61.0296,76.1136,41.02,95,100,15.68,RU,1635037271
puerto leguizamo,-0.1934,-74.7819,77.7,76,65,3.02,CO,1635037221
kirakira,-10.4544,161.9205,87.24,66,8,11.63,SB,1635037272
ranong,9.9658,98.6348,78.98,87,100,4.03,TH,1635037272
brae,60.3964,-1.353,53.51,90,100,19.1,GB,1635037134
mehamn,71.0357,27.8492,35.98,65,100,20.94,NO,1635037272
praia da vitoria,38.7333,-27.0667,64.76,76,19,12.12,PT,1635037273
kununurra,-15.7667,128.7333,89.58,58,40,6.91,AU,1635037273
lerwick,60.1545,-1.1494,53.6,91,100,21.99,GB,1635037274
ingham,42.6,-84.3833,41.56,87,1,0.0,US,1635037274
onguday,50.75,86.15,31.35,76,100,3.27,RU,1635037274
valea ierii,46.65,23.35,32.67,72,30,4.41,RO,1635037275
yingcheng,30.95,113.55,58.8,58,4,5.77,CN,1635037275
chifeng,42.2683,118.9636,46.76,41,4,4.7,CN,1635037078
yining,29.0361,114.5636,60.17,66,0,1.59,CN,1635037276
sidi ali,36.0998,0.4206,61.34,81,0,11.21,DZ,1635037276
belaguntha,19.8833,84.65,68.65,80,91,2.53,IN,1635037277
banda aceh,5.5577,95.3222,80.24,78,100,1.61,ID,1635037277
chepareria,1.3077,35.2039,61.16,78,0,5.14,KE,1635037277
krasnoselkup,65.7,82.4667,32.32,99,100,9.1,RU,1635037278
puerto quijarro,-17.7833,-57.7667,94.32,36,32,9.66,BO,1635037278
zhanaozen,43.3,52.8,48.06,26,6,9.82,KZ,1635037279
baraboo,43.4711,-89.7443,39.13,80,1,0.0,US,1635037279
moron,-34.6534,-58.6198,61.68,55,0,5.99,AR,1635037279
evensk,61.95,159.2333,15.76,69,88,11.7,RU,1635037280
srednekolymsk,67.45,153.6833,-4.23,89,44,4.76,RU,1635037280
penzance,50.1186,-5.5371,54.61,85,98,25.72,GB,1635037281
nizhniy odes,63.6445,54.856,24.48,95,42,3.67,RU,1635037281
colesberg,-30.72,25.0972,45.55,72,0,16.53,ZA,1635037281
egvekinot,66.3167,-179.1667,11.77,85,100,6.08,RU,1635037282
franklin,39.9667,-83.0166,53.24,75,90,1.01,US,1635037083
port blair,11.6667,92.75,80.51,76,100,3.33,IN,1635037282
grand island,40.925,-98.342,56.23,59,90,3.0,US,1635037283
zhigansk,66.7697,123.3711,25.99,93,100,7.94,RU,1635037235
raton,36.9034,-104.4391,59.05,32,100,12.06,US,1635037212
talnakh,69.4865,88.3972,22.78,92,100,6.58,RU,1635037283
qianjiang,30.4151,112.8859,58.71,56,46,5.82,CN,1635037284
navirai,-23.065,-54.1906,65.64,96,99,20.15,BR,1635037284
cap malheureux,-19.9842,57.6142,74.46,76,97,7.0,MU,1635037275
limon,10.0,-83.0333,80.6,79,87,4.07,CR,1635037226
kamariotissa,40.4833,25.4667,55.45,75,18,2.33,GR,1635037285
nuuk,64.1835,-51.7216,29.01,40,90,12.66,GL,1635037285
pacific grove,36.6177,-121.9166,59.27,79,100,1.01,US,1635037286
ruteng,-8.6136,120.4721,75.78,58,38,0.29,ID,1635037286
buraydah,26.326,43.975,74.03,19,0,10.0,SA,1635037286
grao mogol,-16.5594,-42.8897,65.34,94,37,2.53,BR,1635037287
san ignacio,17.1561,-89.0714,75.42,96,100,3.15,BZ,1635037287
aswan,24.0934,32.907,70.9,43,0,6.91,EG,1635037186
vanavara,60.34,102.2797,31.41,95,100,12.64,RU,1635037279
ludvika,60.1496,15.1878,34.21,72,100,4.61,SE,1635037288
ahipara,-35.1667,173.1667,64.74,82,30,8.14,NZ,1635037288
izhma,65.0083,53.9113,22.1,97,22,4.14,RU,1635037288
batagay-alyta,67.8006,130.4114,5.65,94,100,2.46,RU,1635037289
zhicheng,30.2956,111.5047,58.3,53,79,3.76,CN,1635037289
kondinskoye,59.6481,67.41,37.83,82,14,14.27,RU,1635037289
kahului,20.8947,-156.47,78.84,79,18,11.99,US,1635037290
ndele,8.4109,20.6473,69.82,89,100,2.93,CF,1635037290
panjab,34.388,67.0233,26.83,51,0,3.04,AF,1635037291
hami,42.8,93.45,47.32,45,100,3.44,CN,1635037217
kailua,21.4022,-157.7394,80.8,68,52,18.37,US,1635037291
yebaishou,41.3975,119.6408,48.36,47,3,3.44,CN,1635037291
ankazoabo,-22.2833,44.5167,63.59,68,0,2.06,MG,1635037292
los llanos de aridane,28.6585,-17.9182,65.12,80,75,3.0,ES,1635037292
ha tinh,18.3333,105.9,66.36,83,100,8.1,VN,1635037293
ngaoundere,7.3167,13.5833,65.19,91,100,3.53,CM,1635037293
cam ranh,11.9214,109.1591,84.16,70,40,9.22,VN,1635037294
nguruka,-5.1092,31.0419,70.32,68,50,2.53,TZ,1635037294
san jose,37.3394,-121.895,63.34,60,100,3.0,US,1635036877
san lorenzo,-25.3333,-57.5333,66.45,95,100,9.84,PY,1635037294
linhai,28.85,121.1167,57.33,93,100,3.11,CN,1635037295
marrakesh,31.6315,-8.0083,62.67,55,0,4.61,MA,1635037295
imperial beach,32.5839,-117.1131,62.98,77,75,8.01,US,1635037296
wanaka,-44.7,169.15,57.88,83,100,6.02,NZ,1635037296
jalu,29.0331,21.5482,69.8,38,27,10.98,LY,1635037297
tarnok,47.3733,18.8458,40.69,70,0,6.2,HU,1635037297
mahibadhoo,3.7833,72.9667,82.81,70,87,13.98,MV,1635037297
serafimovich,49.5786,42.736,47.37,61,100,7.67,RU,1635037298
havoysund,70.9963,24.6622,32.88,53,100,18.72,NO,1635037298
hokitika,-42.7167,170.9667,56.01,81,100,3.49,NZ,1635037138
bilibino,68.0546,166.4372,-6.09,98,92,0.89,RU,1635037110
hobyo,5.3505,48.5268,78.66,80,1,7.54,SO,1635037299
lorengau,-2.0226,147.2712,85.05,70,98,10.4,PG,1635037180
ishigaki,24.3448,124.1572,77.52,68,74,15.86,JP,1635037299
vostok,46.4856,135.8833,43.61,50,0,6.22,RU,1635037300
nantucket,41.2835,-70.0995,53.11,81,39,12.53,US,1635037039
surt,31.2089,16.5887,78.82,36,100,20.33,LY,1635037300
rawson,-43.3002,-65.1023,58.84,25,5,23.0,AR,1635037138
ust-kuyga,70.0167,135.6,0.93,96,100,1.74,RU,1635037301
yerbogachen,61.2767,108.0108,30.76,78,99,11.99,RU,1635037302
walvis bay,-22.9575,14.5053,58.08,92,5,11.32,NA,1635037302
itoman,26.1247,127.6694,77.02,61,75,12.66,JP,1635037302
lata,40.1629,-8.3327,56.8,66,0,2.59,PT,1635037303
mezhdurechenskiy,59.6,65.9333,38.35,79,11,11.7,RU,1635037303
mahon,39.8885,4.2658,61.36,88,0,9.22,ES,1635037205
launceston,-41.45,147.1667,54.73,69,100,7.0,AU,1635037304
bozoum,6.3193,16.3799,67.42,95,57,2.59,CF,1635037304
saint-prosper,46.2117,-70.4811,37.71,83,100,3.31,CA,1635037305
mecca,21.4267,39.8261,78.96,60,0,1.7,SA,1635037202
kabalo,-6.05,26.9167,71.44,82,27,1.36,CD,1635037305
sur,22.5667,59.5289,79.74,65,2,9.33,OM,1635037241
krasnaya gora,52.9995,31.6023,40.91,84,97,12.41,RU,1635037181
hovd,48.0056,91.6419,32.85,44,0,7.05,MN,1635037306
noumea,-22.2763,166.4572,78.78,65,34,12.33,NC,1635037306
chitaga,7.1378,-72.6646,54.88,96,74,2.46,CO,1635037306
bam,29.106,58.357,59.86,25,1,1.23,IR,1635037307
carahue,-38.7,-73.1667,45.93,99,49,2.71,CL,1635037307
erenhot,43.6475,111.9767,43.36,38,0,6.02,CN,1635037308
calamar,10.2511,-74.9146,84.15,90,100,5.86,CO,1635037041
waingapu,-9.6567,120.2641,84.79,62,62,4.32,ID,1635037308
olafsvik,64.8945,-23.7142,45.34,83,100,12.26,IS,1635037035
cozumel,20.5083,-86.9458,82.0,84,61,4.0,MX,1635037309
ukiah,39.1502,-123.2078,54.7,95,100,1.01,US,1635037157
lazo,43.3817,133.9014,53.46,39,0,3.18,RU,1635037309
tulum,20.2167,-87.4667,81.99,90,56,5.21,MX,1635037309
port hardy,50.6996,-127.4199,48.47,85,49,12.82,CA,1635037310
vila do maio,15.1333,-23.2167,79.61,71,6,15.12,CV,1635037310
riyadh,24.6877,46.7219,77.18,24,0,9.53,SA,1635037310
hamina,60.5697,27.1979,31.28,76,100,11.9,FI,1635037149
wanning,18.8003,110.3967,73.42,84,93,15.95,CN,1635037311
edson,53.5835,-116.4356,41.11,96,90,3.44,CA,1635037215
werda,-25.2667,23.2833,58.55,54,0,14.94,BW,1635037312
half moon bay,37.4636,-122.4286,61.92,71,90,4.0,US,1635037312
williston,48.147,-103.618,47.79,54,100,8.99,US,1635036722
pedernales,18.0384,-71.744,80.87,71,89,6.89,DO,1635037312
at-bashi,41.1702,75.8106,23.63,39,0,2.77,KG,1635037313
henties bay,-22.116,14.2845,57.85,93,18,8.72,NA,1635037147
tondon,10.3667,-13.35,74.16,98,100,0.69,GN,1635037313
lasa,46.6166,10.7002,36.75,48,2,2.24,IT,1635037314
casambalangan,18.3765,122.1274,80.91,81,99,8.52,PH,1635037314
la romana,18.4273,-68.9728,77.38,81,5,8.41,DO,1635037212
guaira,-20.3183,-48.3106,80.4,45,17,7.78,BR,1635037250
visby,57.6409,18.296,41.22,70,0,6.91,SE,1635037315
rio grande,-32.035,-52.0986,58.95,90,89,11.72,BR,1635037315
ornskoldsvik,63.2909,18.7153,20.35,100,40,4.61,SE,1635037316
lianran,24.9227,102.485,56.07,95,100,1.79,CN,1635037316
talcahuano,-36.7167,-73.1167,51.66,87,2,11.52,CL,1635037317
karratha,-20.7377,116.8463,91.53,20,17,10.89,AU,1635037317
cordoba,-31.4135,-64.1811,62.62,47,0,7.63,AR,1635037226
sortino,37.1566,15.026,68.13,91,100,14.23,IT,1635037317
alofi,-19.0595,-169.9187,74.21,65,97,22.35,NU,1635037318
marawi,7.9986,124.2928,72.64,66,86,3.22,PH,1635037318
whitecourt,54.1502,-115.6855,34.32,100,100,2.77,CA,1635037205
trzebinia,50.1593,19.4697,36.66,90,18,5.59,PL,1635037170
akdepe,42.0551,59.3788,37.4,39,0,9.35,TM,1635037319
bulungu,-4.55,18.6,70.21,98,39,2.84,CD,1635037319
nanchang,28.6833,115.8833,59.81,73,100,3.49,CN,1635037320
pierre,44.3683,-100.351,49.96,55,100,7.0,US,1635037209
caxito,-8.5785,13.6643,74.62,85,100,3.2,AO,1635037320
minab,27.1467,57.0801,78.31,18,0,5.28,IR,1635037321
arica,-18.475,-70.3042,60.24,82,35,2.01,CL,1635037299
birao,10.2849,22.7882,75.31,70,100,3.71,CF,1635037321
ambanja,-13.6833,48.45,74.21,90,99,2.57,MG,1635037322
katherine,-14.4667,132.2667,91.72,46,8,4.61,AU,1635037322
katobu,-4.9408,122.5276,87.85,60,14,1.45,ID,1635037323
killybegs,54.6333,-8.45,55.44,90,92,15.19,IE,1635037323
aykhal,66.0,111.5,24.08,93,100,22.17,RU,1635037324
santarem,-2.4431,-54.7083,76.82,87,100,2.06,BR,1635037301
saint-georges,12.0564,-61.7485,81.43,73,22,17.29,GD,1635037324
itaqui,-29.1253,-56.5531,61.45,92,100,10.42,BR,1635037229
sorland,67.667,12.6934,42.08,69,100,4.23,NO,1635037325
ayakudi,10.45,77.55,73.0,89,99,2.37,IN,1635037325
tocopilla,-22.092,-70.1979,61.75,65,4,6.76,CL,1635037222
tshikapa,-6.4167,20.8,70.07,93,98,2.8,CD,1635037326
broome,42.2506,-75.833,41.85,87,40,1.01,US,1635037326
graaff-reinet,-32.2522,24.5308,48.92,73,38,4.74,ZA,1635037327
richards bay,-28.783,32.0377,67.26,73,100,18.7,ZA,1635037327
nadym,65.5333,72.5167,26.26,87,10,17.6,RU,1635037327
cross lanes,38.4204,-81.7907,52.0,92,100,1.01,US,1635037328
port-gentil,-0.7193,8.7815,77.52,85,99,9.55,GA,1635037328
dzhiginka,45.133,37.3383,53.94,87,100,13.42,RU,1635037329
tevaitoa,-16.7833,-151.5,77.65,80,78,9.89,PF,1635037329
port hedland,-20.3167,118.5667,95.05,11,69,21.85,AU,1635037330
tupik,54.4253,119.9327,36.28,65,79,2.21,RU,1635037330
honjo,36.2333,139.1833,65.26,40,0,3.96,JP,1635037330
bukachacha,52.9833,116.9167,35.17,68,72,1.97,RU,1635037331
antalaha,-14.9003,50.2788,74.21,93,79,2.51,MG,1635037127
