City,Lat,Lng,Max Temp,Humidity,Cloudiness,Wind Speed,Country,Date
georgetown,5.4112,100.3354,83.97,80,20,5.99,MY,1634910951
nishihara,26.1842,127.7558,72.1,58,90,13.8,JP,1634911114
sampit,-2.5333,112.95,74.59,96,100,2.39,ID,1634911049
vaini,-21.2,-175.2,69.96,94,20,10.36,TO,1634911114
yellowknife,62.456,-114.3525,36.46,90,1,11.5,CA,1634911115
flinders,-34.5833,150.8552,61.36,83,5,1.01,AU,1634911115
baykit,61.67,96.37,34.83,93,100,4.29,RU,1634911115
kahului,20.8947,-156.47,76.82,85,9,10.0,US,1634910999
mahebourg,-20.4081,57.7,79.09,73,75,13.8,MU,1634911116
hermanus,-34.4187,19.2345,69.8,64,99,29.82,ZA,1634911116
choix,26.7092,-108.3219,71.06,55,0,4.34,MX,1634911116
bathsheba,13.2167,-59.5167,86.61,66,40,24.16,BB,1634911117
kapaa,22.0752,-159.319,70.75,95,13,4.21,US,1634911117
chokurdakh,70.6333,147.9167,-16.06,100,93,1.99,RU,1634911118
bilibino,68.0546,166.4372,-1.62,100,100,2.04,RU,1634911118
chuy,-33.6971,-53.4616,68.88,53,2,2.82,UY,1634911118
yeppoon,-23.1333,150.7333,74.98,84,91,8.39,AU,1634911119
ilulissat,69.2167,-51.1,5.95,76,3,5.19,GL,1634911035
ponta do sol,32.6667,-17.1,73.44,71,89,6.51,PT,1634911119
yairipok,24.6667,94.0667,67.12,81,63,1.77,IN,1634911120
ushuaia,-54.8,-68.3,46.06,46,75,21.85,AR,1634910833
tutoia,-2.7619,-42.2744,87.1,59,100,11.32,BR,1634911120
emerald,-23.5333,148.1667,73.54,88,75,16.11,AU,1634911121
iqaluit,63.7506,-68.5145,25.7,79,75,18.01,CA,1634910861
kruisfontein,-34.0033,24.7314,70.88,60,5,9.01,ZA,1634911121
alexandria,31.2156,29.9553,78.76,50,40,14.97,EG,1634911121
zavyalovo,54.5053,82.4484,38.98,60,37,20.58,RU,1634911122
khatanga,71.9667,102.5,7.65,94,100,7.99,RU,1634911122
chornobay,49.6708,32.3239,60.58,49,15,8.46,UA,1634911122
tahoua,14.8888,5.2692,98.58,28,0,4.61,NE,1634911123
hobart,-42.8794,147.3294,58.51,86,90,1.01,AU,1634911086
port alfred,-33.5906,26.891,65.26,81,98,16.75,ZA,1634911124
mweka,-4.85,21.5667,85.46,49,96,2.48,CD,1634911125
smithers,54.7804,-127.1743,48.52,66,75,12.66,CA,1634910943
arraial do cabo,-22.9661,-42.0278,73.26,60,20,3.44,BR,1634911125
kaitangata,-46.2817,169.8464,45.03,95,100,3.38,NZ,1634911126
thompson,55.7435,-97.8558,24.96,100,75,4.61,CA,1634911126
velika gorica,45.7125,16.0756,56.93,89,90,2.3,HR,1634911126
cotonou,6.3654,2.4183,87.78,70,40,12.66,BJ,1634911127
constitucion,-35.3333,-72.4167,56.46,50,0,10.63,CL,1634911127
waingapu,-9.6567,120.2641,80.87,79,87,3.13,ID,1634911128
sieut,46.9833,24.65,60.82,49,55,8.66,RO,1634911128
goderich,43.7501,-81.7165,41.58,87,100,5.75,CA,1634911129
cabo san lucas,22.8909,-109.9124,77.5,86,0,8.46,MX,1634911056
atuona,-9.8,-139.0333,77.97,76,50,20.76,PF,1634911129
yulara,-25.2406,130.9889,80.44,17,0,10.36,AU,1634911129
kaeo,-35.1,173.7833,59.32,97,100,19.64,NZ,1634911130
vanavara,60.34,102.2797,34.83,83,99,5.32,RU,1634911130
fort nelson,58.8053,-122.7002,40.59,75,75,4.61,CA,1634911130
severo-kurilsk,50.6789,156.125,37.89,74,34,10.96,RU,1634911131
talaya,61.3833,152.75,-9.54,86,99,0.25,RU,1634911131
saint-pierre,-21.3393,55.4781,77.72,76,75,13.8,RE,1634911131
maneadero,31.7167,-116.5667,56.1,91,5,3.0,MX,1634911132
envira,-7.3,-70.2167,88.09,54,62,4.45,BR,1634911132
mataura,-46.1927,168.8643,42.91,96,98,1.83,NZ,1634911133
bikramganj,25.2,84.25,72.81,67,0,2.95,IN,1634911133
caravelas,-17.7125,-39.2481,75.31,85,100,6.4,BR,1634911133
sananduva,-27.9497,-51.8067,70.47,58,0,4.65,BR,1634911134
airai,-8.9266,125.4092,63.95,83,65,0.89,TL,1634911134
parker,32.7668,-97.8003,60.6,70,18,1.01,US,1634911134
viedma,-40.8135,-62.9967,62.29,33,60,13.13,AR,1634911135
nushki,29.5542,66.0215,63.75,24,0,8.57,PK,1634911135
lebu,-37.6167,-73.65,51.87,68,100,16.04,CL,1634911136
ketchikan,55.3422,-131.6461,48.25,89,100,32.59,US,1634911136
port elizabeth,-33.918,25.5701,68.29,60,20,17.27,ZA,1634911137
rikitea,-23.1203,-134.9692,73.85,81,100,24.45,PF,1634911137
khandbari,27.3747,87.2039,65.62,97,84,1.83,NP,1634911137
codrington,-38.2667,141.9667,53.17,90,100,8.72,AU,1634911138
bako,5.7833,36.5667,80.42,41,94,2.48,ET,1634911138
belyy yar,53.6039,91.3903,37.29,70,100,4.47,RU,1634911139
talnakh,69.4865,88.3972,11.32,97,92,4.85,RU,1634911139
zamora,-4.0692,-78.9567,70.84,74,66,3.58,EC,1634911139
saint george,37.1041,-113.5841,45.07,34,30,4.97,US,1634911140
teya,60.3778,92.6267,43.75,73,100,13.56,RU,1634911140
cape town,-33.9258,18.4232,62.69,79,75,5.99,ZA,1634911102
male,4.1748,73.5089,84.15,74,20,10.36,MV,1634911141
busselton,-33.65,115.3333,50.04,75,6,8.55,AU,1634911141
dikson,73.5069,80.5464,18.81,78,100,11.54,RU,1634911142
punta arenas,-53.15,-70.9167,46.33,53,75,23.02,CL,1634911142
port hardy,50.6996,-127.4199,51.98,76,75,16.11,CA,1634911143
margate,51.3813,1.3862,54.72,64,100,1.99,GB,1634911143
barrow,71.2906,-156.7887,27.25,97,100,5.55,US,1634911144
kavieng,-2.5744,150.7967,80.69,77,100,9.73,PG,1634911144
deputatskiy,69.3,139.9,-7.53,99,99,1.5,RU,1634911144
muscat,23.6139,58.5922,83.66,63,0,4.27,OM,1634911145
panaba,21.2833,-88.2667,78.08,90,90,3.13,MX,1634911145
hefei,31.8639,117.2808,53.62,94,98,2.24,CN,1634910919
evensk,61.95,159.2333,4.57,76,56,7.56,RU,1634911146
jamestown,42.097,-79.2353,45.55,89,90,4.0,US,1634910882
albany,42.6001,-73.9662,57.97,82,100,9.4,US,1634910880
edd,13.9297,41.6925,88.48,62,26,9.98,ER,1634911146
carnarvon,-24.8667,113.6333,69.87,73,0,21.85,AU,1634911147
hilo,19.7297,-155.09,68.9,89,61,4.0,US,1634911147
dunedin,-45.8742,170.5036,51.8,81,100,8.01,NZ,1634911148
puerto ayora,-0.7393,-90.3518,70.34,83,98,8.66,EC,1634911148
la ronge,55.1001,-105.2842,28.65,86,20,3.44,CA,1634911148
butaritari,3.0707,172.7902,82.11,79,20,16.75,KI,1634911149
nouadhibou,20.931,-17.0347,80.58,61,5,10.36,MR,1634911149
kokopo,-4.352,152.2633,76.5,86,100,5.64,PG,1634911150
sisimiut,66.9395,-53.6735,24.55,78,10,10.25,GL,1634911150
longyearbyen,78.2186,15.6401,21.04,68,75,9.22,SJ,1634911150
san cristobal,7.7669,-72.225,73.58,55,44,5.26,VE,1634911151
bandarbeyla,9.4942,50.8122,80.15,69,9,10.98,SO,1634911151
taft,31.7471,54.2088,64.35,26,20,6.91,IR,1634911151
pisco,-13.7,-76.2167,60.85,82,75,1.14,PE,1634911152
san andres,12.5847,-81.7006,84.22,79,75,9.22,CO,1634911152
shingu,33.7333,135.9833,54.03,76,2,7.94,JP,1634911152
souillac,-20.5167,57.5167,79.18,73,75,13.8,MU,1634911153
new norfolk,-42.7826,147.0587,58.53,69,100,1.74,AU,1634911153
aquiraz,-3.9014,-38.3911,88.88,57,73,9.6,BR,1634911153
stendal,52.6,11.85,49.1,70,100,8.99,DE,1634911154
hobyo,5.3505,48.5268,80.96,73,49,15.01,SO,1634911154
faanui,-16.4833,-151.75,77.68,80,2,7.23,PF,1634911155
porto novo,6.4965,2.6036,87.62,71,91,9.73,BJ,1634911155
beringovskiy,63.05,179.3167,18.45,89,100,16.84,RU,1634911155
magistralnyy,56.1725,107.4458,26.26,94,18,3.11,RU,1634911156
khor,47.8861,134.9464,31.39,77,0,5.7,RU,1634911156
ribeira grande,38.5167,-28.7,72.0,73,20,5.75,PT,1634911156
rawson,-43.3002,-65.1023,58.78,26,2,1.16,AR,1634911157
den helder,52.9599,4.7593,51.73,73,90,20.0,NL,1634911157
qaanaaq,77.484,-69.3632,-2.07,69,0,8.75,GL,1634911158
greenfield,42.9614,-88.0126,37.9,84,40,1.01,US,1634911158
bengkulu,-3.8004,102.2655,78.03,84,100,2.51,ID,1634911158
idritsa,56.3316,28.8988,45.45,68,76,16.75,RU,1634911159
saint-augustin,51.226,-58.6502,43.7,51,28,4.21,CA,1634911109
cockburn town,21.4612,-71.1419,83.44,75,14,17.87,TC,1634911159
port-gentil,-0.7193,8.7815,85.96,70,40,14.97,GA,1634911160
sao filipe,14.8961,-24.4956,83.62,59,3,7.7,CV,1634911160
adrar,20.5022,-10.0711,88.14,16,59,9.44,MR,1634911161
buraydah,26.326,43.975,93.65,14,0,6.53,SA,1634911161
salalah,17.0151,54.0924,78.35,68,51,4.83,OM,1634911161
olinda,-8.0089,-34.8553,85.73,66,40,9.22,BR,1634911162
mar del plata,-38.0023,-57.5575,58.14,96,90,1.99,AR,1634910928
esperance,-33.8667,121.9,53.44,69,64,8.28,AU,1634911162
faya,18.3851,42.4509,75.72,20,1,14.03,SA,1634911162
bluff,-46.6,168.3333,49.26,85,100,0.54,NZ,1634911163
saskylakh,71.9167,114.0833,-4.27,100,100,2.19,RU,1634911163
tucuman,-26.8241,-65.2226,78.8,36,0,6.91,AR,1634911163
cerrito,6.8432,-72.694,51.19,73,51,2.44,CO,1634911164
sola,-13.8833,167.55,80.28,77,90,5.64,VU,1634911164
rundu,-17.9333,19.7667,93.69,22,100,4.97,NA,1634911165
biskamzha,53.4497,89.5272,39.27,95,100,8.81,RU,1634911165
tilichiki,60.4667,166.1,1.27,95,44,5.73,RU,1634911166
kuntaur,13.6667,-14.8833,97.29,20,39,4.81,GM,1634911166
gohpur,26.8833,93.6333,79.05,87,0,3.6,IN,1634911166
cidreira,-30.1811,-50.2056,71.49,61,0,4.25,BR,1634911167
timra,62.487,17.3257,36.3,74,90,16.11,SE,1634911167
norman wells,65.282,-126.8329,33.84,80,75,11.5,CA,1634911168
bredasdorp,-34.5322,20.0403,69.28,46,100,21.32,ZA,1634911168
harper,4.375,-7.7169,80.58,80,45,10.31,LR,1634911168
tiksi,71.6872,128.8694,3.65,96,100,2.37,RU,1634911169
salinas,36.6777,-121.6555,58.5,95,100,3.38,US,1634911169
colares,38.7992,-9.4469,71.33,48,0,11.01,PT,1634911169
bushehr,28.9684,50.8385,84.29,48,0,18.41,IR,1634911170
lorengau,-2.0226,147.2712,81.21,76,99,9.06,PG,1634911170
kushmurun,52.4503,64.6311,43.5,88,100,16.8,KZ,1634911171
saldanha,-33.0117,17.9442,64.45,70,100,23.71,ZA,1634911171
maceio,-9.6658,-35.7353,89.04,62,75,12.66,BR,1634910872
napa,38.4832,-122.3344,52.32,86,100,4.41,US,1634911172
wurzen,51.3667,12.7333,52.29,62,63,27.2,DE,1634911172
carballo,43.213,-8.691,62.42,73,9,9.73,ES,1634910958
castro,-24.7911,-50.0119,69.26,49,0,3.06,BR,1634911172
chail,25.4333,81.6333,77.54,51,0,5.82,IN,1634911173
dmitrovsk-orlovskiy,52.505,35.1464,52.12,61,18,16.37,RU,1634911173
birjand,32.8663,59.2211,64.87,9,0,11.5,IR,1634911173
cochrane,51.1834,-114.4687,35.2,74,90,3.44,CA,1634910925
hasaki,35.7333,140.8333,52.21,80,100,24.79,JP,1634911174
saint-philippe,-21.3585,55.7679,77.0,82,73,5.61,RE,1634911174
conceicao do araguaia,-8.2578,-49.2647,82.74,72,100,4.88,BR,1634911175
mnogovershinnyy,53.9353,139.9242,27.01,87,100,7.96,RU,1634911175
nikolskoye,59.7035,30.7861,46.9,66,100,18.41,RU,1634911176
araouane,18.9048,-3.5265,92.55,15,2,2.77,ML,1634911176
baculin,7.4525,126.5842,77.92,86,95,4.7,PH,1634911176
avarua,-21.2078,-159.775,69.85,60,75,5.75,CK,1634911177
russell,32.3502,-85.1999,64.49,91,90,4.61,US,1634911177
ust-ilimsk,58.0006,102.6619,37.78,75,100,5.82,RU,1634911165
macusani,-14.0833,-70.4333,48.49,51,27,2.91,PE,1634911178
beecher,43.09,-83.6944,39.99,84,85,1.01,US,1634911178
pevek,69.7008,170.3133,13.21,93,100,9.22,RU,1634911178
ugoofaaru,5.6667,73.0,82.11,75,39,8.05,MV,1634911179
komsomolskiy,40.4272,71.7189,50.72,40,40,0.0,UZ,1634911179
bideford,51.0179,-4.2046,54.18,74,100,13.24,GB,1634911180
san policarpo,12.1791,125.5072,81.09,80,100,10.8,PH,1634911180
aksu,41.1231,80.2644,55.76,39,100,9.64,CN,1634911181
roseburg,43.2165,-123.3417,51.89,94,90,3.44,US,1634911181
aguimes,27.9054,-15.4461,73.81,57,40,23.02,ES,1634911181
fremont,37.5483,-121.9886,57.33,92,90,1.99,US,1634911182
huichapan,20.3833,-99.65,57.29,81,100,3.87,MX,1634911182
tahta,26.7693,31.5021,84.52,26,7,18.66,EG,1634911183
leningradskiy,69.3833,178.4167,6.42,85,100,8.52,RU,1634911183
oktyabrskoye,43.0645,44.7417,62.74,42,0,6.71,RU,1634911184
klaksvik,62.2266,-6.589,41.92,56,100,8.63,FO,1634911184
charters towers,-20.1,146.2667,75.52,72,98,14.0,AU,1634911184
nicoya,10.1483,-85.452,71.15,85,23,1.74,CR,1634911185
bani walid,31.7566,13.9942,88.02,21,33,14.5,LY,1634911185
hamilton,39.1834,-84.5333,51.37,90,90,1.01,US,1634910970
lasa,46.6166,10.7002,58.28,55,35,2.19,IT,1634911186
abomey,7.1829,1.9912,89.62,52,26,5.19,BJ,1634911186
auki,-8.7676,160.7034,77.65,87,51,5.03,SB,1634911186
birecik,37.0294,37.9903,78.01,19,0,1.12,TR,1634911187
petropavlovka,50.6114,105.3196,35.91,62,0,2.66,RU,1634911187
areosa,41.7178,-8.8571,70.86,58,0,9.1,PT,1634911188
mount gambier,-37.8333,140.7667,49.91,93,90,6.91,AU,1634910986
port jervis,41.3751,-74.6927,59.41,58,52,8.08,US,1634911188
polunochnoye,60.8697,60.4153,35.65,98,100,6.22,RU,1634911188
northam,51.0333,-4.2167,53.49,72,100,13.62,GB,1634911189
isangel,-19.55,169.2667,76.41,84,97,2.48,VU,1634911189
valdez,1.2492,-78.9831,78.53,80,91,4.94,EC,1634911190
victoria,22.2855,114.1577,66.04,76,100,5.99,HK,1634910930
geraldton,-28.7667,114.6,64.81,77,0,14.97,AU,1634911190
lagoa,39.05,-27.9833,67.95,70,64,6.06,PT,1634911190
rio grande,-32.035,-52.0986,70.95,66,5,5.84,BR,1634911148
kudahuvadhoo,2.6708,72.8944,82.87,68,20,8.61,MV,1634911191
cururupu,-1.8283,-44.8683,91.92,47,99,6.62,BR,1634911191
kavaratti,10.5669,72.642,82.51,74,54,2.17,IN,1634911192
velikiy ustyug,60.7644,46.3106,48.9,78,38,10.98,RU,1634911192
ziarat,30.3823,67.7282,50.13,34,0,10.18,PK,1634911193
mirnyy,62.5353,113.9611,34.0,84,100,8.77,RU,1634911193
luganville,-15.5333,167.1667,77.16,90,27,2.42,VU,1634911193
jever,53.5833,7.9,49.96,66,20,17.27,DE,1634911194
tongchuan,35.0806,109.0897,47.79,60,99,6.38,CN,1634911194
zhigansk,66.7697,123.3711,8.56,99,99,0.76,RU,1634911195
caohai,26.8661,104.2841,40.17,93,100,2.28,CN,1634911195
kodiak,57.79,-152.4072,39.69,69,100,20.65,US,1634911195
tuktoyaktuk,69.4541,-133.0374,24.8,100,1,5.75,CA,1634911196
upernavik,72.7868,-56.1549,17.46,92,99,10.38,GL,1634911196
bantry,51.6833,-9.45,53.55,73,100,10.25,IE,1634911197
brigantine,39.4101,-74.3646,64.53,82,35,12.82,US,1634911197
aksarka,66.5606,67.7975,29.05,88,100,10.56,RU,1634911198
kiama,-34.6833,150.8667,61.14,86,5,5.01,AU,1634911198
xining,36.6167,101.7667,45.05,70,22,3.38,CN,1634911198
lompoc,34.6391,-120.4579,56.91,90,90,8.99,US,1634911199
santiago,-33.4569,-70.6483,59.32,69,75,3.44,CL,1634911020
itaituba,-4.2761,-55.9836,80.76,83,40,5.75,BR,1634911199
loja,-3.9931,-79.2042,58.41,88,40,2.3,EC,1634911116
bowen,-20.0167,148.2333,75.42,82,75,10.92,AU,1634911200
port-cartier,50.0334,-66.8654,45.75,96,100,19.53,CA,1634911201
broken hill,-31.95,141.4333,66.54,44,5,22.21,AU,1634911202
asau,46.4333,26.4,63.95,52,100,6.82,RO,1634911203
hasilpur,29.7122,72.5553,84.07,28,0,10.8,PK,1634911204
kambarka,56.2694,54.2062,49.98,82,100,14.18,RU,1634911205
lyuban,52.7985,28.0048,48.74,54,67,18.61,BY,1634911206
gat,31.61,34.7642,77.4,41,36,15.21,IL,1634911209
port moresby,-9.4431,147.1797,76.98,85,79,6.89,PG,1634911210
sao jose da coroa grande,-8.8978,-35.1478,84.47,65,44,10.89,BR,1634911212
independence,39.0911,-94.4155,42.64,91,1,0.0,US,1634911200
middletown,39.5151,-84.3983,50.9,85,90,4.61,US,1634911213
tuatapere,-46.1333,167.6833,46.24,83,99,4.09,NZ,1634911217
hambantota,6.1241,81.1185,79.14,94,40,3.44,LK,1634911220
quatre cocos,-20.2078,57.7625,76.08,72,73,7.58,MU,1634911221
ambilobe,-13.2,49.05,82.6,63,68,8.32,MG,1634911221
fairbanks,64.8378,-147.7164,20.59,92,1,0.0,US,1634910940
comodoro rivadavia,-45.8667,-67.5,62.46,27,0,17.27,AR,1634911114
kiunga,-6.1219,141.2906,75.78,83,96,2.26,PG,1634911222
bambous virieux,-20.3428,57.7575,76.21,73,75,8.05,MU,1634911223
camacupa,-12.0167,17.4833,79.11,48,100,7.56,AO,1634911224
tura,25.5198,90.2201,66.94,73,0,3.36,IN,1634911225
breves,-1.6822,-50.4803,90.73,51,85,3.04,BR,1634911225
banjar,-8.19,114.9675,81.91,91,100,6.33,ID,1634911225
san patricio,28.017,-97.5169,72.21,83,75,3.85,US,1634911226
kalino,58.2504,57.6085,45.16,97,100,11.21,RU,1634911226
sangar,63.9242,127.4739,17.69,96,100,7.65,RU,1634911227
tarija,-21.5355,-64.7296,78.76,25,7,5.68,BO,1634911227
ekuvukeni,-28.4675,30.1551,79.97,31,35,15.66,ZA,1634911228
porbandar,21.6422,69.6093,80.53,61,5,10.92,IN,1634911072
manggar,-2.8833,108.2667,79.97,77,69,2.68,ID,1634911228
kembe,4.6228,21.8865,86.92,54,58,2.48,CF,1634911229
vestmannaeyjar,63.4427,-20.2734,43.79,93,90,24.16,IS,1634911229
doha,25.2867,51.5333,89.58,35,0,17.27,QA,1634911018
brus laguna,15.75,-84.4833,80.06,89,77,1.72,HN,1634911230
houma,29.5958,-90.7195,72.41,98,90,0.0,US,1634911036
itarema,-2.9248,-39.9167,89.92,53,85,14.61,BR,1634911230
ancud,-41.8697,-73.8203,50.63,60,10,5.91,CL,1634911231
talcahuano,-36.7167,-73.1167,52.41,63,0,11.36,CL,1634911231
luanda,-8.8368,13.2343,80.6,78,75,10.36,AO,1634911058
beidao,34.5686,105.8933,49.44,83,97,4.97,CN,1634911231
bolu,40.6667,31.5833,62.8,37,24,2.77,TR,1634911232
zhigalovo,54.8097,105.1578,33.71,79,10,1.25,RU,1634911232
bennettsville,34.6174,-79.6848,69.62,86,40,1.01,US,1634911233
minudasht,37.2289,55.3747,61.9,34,0,2.1,IR,1634911233
parfenyevo,58.484,43.4088,48.6,75,51,9.84,RU,1634911234
kamloops,50.6665,-120.3192,49.26,88,100,1.32,CA,1634911215
buala,-8.145,159.5921,80.31,81,96,6.2,SB,1634911234
basco,20.4487,121.9702,80.38,81,100,28.25,PH,1634911235
ambalavao,-21.8333,46.9333,76.3,36,68,5.1,MG,1634911235
koppies,-27.2418,27.5742,77.61,29,39,20.27,ZA,1634911236
maragogi,-9.0122,-35.2225,84.61,65,36,11.77,BR,1634911236
bubaque,11.2833,-15.8333,82.85,73,14,5.21,GW,1634911237
voskresenskoye,56.8381,45.4317,51.28,79,19,13.53,RU,1634911237
srednekolymsk,67.45,153.6833,-9.74,98,27,4.43,RU,1634911237
rosario,-32.9468,-60.6393,80.47,39,0,1.99,AR,1634911028
troitsko-pechorsk,62.7084,56.1964,38.75,98,100,9.64,RU,1634911238
port keats,-14.25,129.55,82.81,80,2,9.89,AU,1634911238
shelburne,44.0787,-80.2041,35.53,92,100,11.81,CA,1634911239
huarmey,-10.0681,-78.1522,66.61,80,53,8.7,PE,1634911239
panama city,8.9936,-79.5197,78.53,88,40,3.44,PA,1634911134
eyl,7.9803,49.8164,80.55,73,38,12.84,SO,1634911240
quime,-16.9833,-67.2167,64.9,33,5,6.11,BO,1634911240
strezhevoy,60.7333,77.5889,31.98,74,100,15.97,RU,1634911240
whitianga,-36.8333,175.7,57.02,72,100,17.98,NZ,1634911241
ostrovnoy,68.0531,39.5131,35.33,72,100,28.03,RU,1634911241
tateyama,34.9833,139.8667,54.09,84,81,22.73,JP,1634911242
road town,18.4167,-64.6167,86.04,62,20,11.5,VG,1634911242
nago,26.5881,127.9761,71.74,57,99,14.63,JP,1634911243
las palmas,28.4204,-14.0131,72.39,60,75,12.66,ES,1634911243
mawlaik,23.6333,94.4167,72.66,97,11,0.29,MM,1634911243
prieska,-29.6641,22.7474,72.05,24,11,20.87,ZA,1634911244
talara,-4.5772,-81.2719,70.05,76,37,14.43,PE,1634911244
sao joao da barra,-21.6403,-41.0511,69.28,74,85,0.29,BR,1634911245
mundo novo,-11.8589,-40.4725,77.09,72,100,4.85,BR,1634911245
hithadhoo,-0.6,73.0833,81.75,74,14,9.53,MV,1634911245
banda aceh,5.5577,95.3222,78.78,86,100,7.92,ID,1634911246
coahuayana,18.7333,-103.6833,79.54,86,100,2.19,MX,1634911246
sambava,-14.2667,50.1667,77.72,83,99,3.4,MG,1634911247
sar-e pul,35.8333,66.1667,38.44,79,59,2.44,AF,1634911247
la serena,-29.9078,-71.2542,61.65,65,1,6.08,CL,1634911248
okato,-39.2,173.8833,50.68,82,100,10.87,NZ,1634911248
castlegar,49.2998,-117.6689,49.15,93,100,3.0,CA,1634911248
zhezkazgan,47.8043,67.7144,36.99,95,100,20.69,KZ,1634911249
mendi,-6.1761,143.6513,53.55,98,100,3.13,PG,1634911249
agirish,61.9247,63.0231,31.41,94,100,7.34,RU,1634911250
bethel,41.3712,-73.414,62.17,78,6,3.0,US,1634911250
zmeinogorsk,51.1567,82.195,34.7,85,100,7.25,RU,1634911250
beaverlodge,55.2166,-119.4361,38.79,79,100,3.38,CA,1634911251
adwa,14.1646,38.8955,74.55,34,60,14.52,ET,1634911251
provideniya,64.3833,-173.3,25.21,67,100,12.44,RU,1634911252
richards bay,-28.783,32.0377,82.92,48,100,13.65,ZA,1634911252
general roca,-39.0333,-67.5833,66.61,33,32,7.9,AR,1634911253
bayan,46.0833,127.4,39.13,57,0,6.89,CN,1634911253
aklavik,68.2191,-135.0107,23.16,90,97,3.18,CA,1634911253
tonj,7.2737,28.6822,90.3,44,98,4.25,SS,1634911228
pringsewu,-5.3582,104.9744,75.38,93,100,2.21,ID,1634911254
sorland,67.667,12.6934,40.86,65,75,20.71,NO,1634911254
nanortalik,60.1432,-45.2371,39.58,97,100,4.07,GL,1634911255
bonnyville,54.2668,-110.735,26.82,62,8,11.12,CA,1634911191
tasiilaq,65.6145,-37.6368,35.76,86,100,8.37,GL,1634911255
upata,8.0086,-62.3989,82.17,64,73,6.76,VE,1634911256
sangueya,10.7,-14.3667,90.99,42,37,4.43,GN,1634911256
laguna,38.421,-121.4238,59.9,93,90,3.0,US,1634911257
vorokhta,48.2869,24.5719,57.76,62,49,19.26,UA,1634911257
ust-nera,64.5667,143.2,6.49,97,99,4.05,RU,1634911257
labuhan,-6.8844,112.2051,82.67,77,47,4.18,ID,1634911258
beloha,-25.1667,45.05,72.39,57,30,15.37,MG,1634911258
pouebo,-20.4,164.5667,69.93,84,1,3.29,NC,1634911259
los llanos de aridane,28.6585,-17.9182,71.13,72,75,8.01,ES,1634911259
eureka,40.8021,-124.1637,53.08,96,92,7.25,US,1634911260
luderitz,-26.6481,15.1594,62.96,68,0,13.96,NA,1634911260
jalu,29.0331,21.5482,83.91,24,0,5.97,LY,1634911261
aripuana,-9.1667,-60.6333,88.36,56,100,4.36,BR,1634911261
havelock,34.8791,-76.9013,74.7,81,97,5.99,US,1634911262
sao felix do xingu,-6.6447,-51.995,78.3,83,100,2.3,BR,1634911248
bafra,41.5678,35.9069,66.81,50,0,2.86,TR,1634911263
coquimbo,-29.9533,-71.3436,59.04,72,0,5.06,CL,1634911264
salinopolis,-0.6136,-47.3561,87.01,62,69,9.19,BR,1634911264
yarada,17.65,83.2667,80.92,94,90,6.91,IN,1634911265
taraclia,45.9,28.6689,69.85,38,98,10.89,MD,1634911265
rodrigues alves,-7.738,-72.6509,86.85,57,78,4.07,BR,1634911266
samarai,-10.6167,150.6667,81.3,74,100,12.03,PG,1634911266
katsuura,35.1333,140.3,54.0,92,100,23.96,JP,1634911266
tizapan el alto,20.1667,-103.0667,62.28,79,43,5.66,MX,1634911267
plettenberg bay,-34.0527,23.3716,65.64,75,94,3.65,ZA,1634911267
noumea,-22.2763,166.4572,75.99,99,9,3.13,NC,1634910991
east london,-33.0153,27.9116,67.14,82,20,17.27,ZA,1634911002
clyde river,70.4692,-68.5914,20.21,73,98,4.03,CA,1634911268
pithora,21.2667,82.5167,71.67,53,0,1.36,IN,1634911268
kinshasa,-4.3246,15.3215,91.78,49,40,9.22,CD,1634911067
anadyr,64.75,177.4833,12.11,93,100,10.31,RU,1634911269
newport,51.5877,-2.9984,55.92,73,37,14.14,GB,1634911202
nurota,40.5614,65.6886,46.49,46,100,6.6,UZ,1634911269
bud,39.447,-86.1758,50.59,95,100,4.7,US,1634911269
nizwa,22.9333,57.5333,88.9,25,0,9.53,OM,1634911270
sinnamary,5.3833,-52.95,82.63,78,97,9.95,GF,1634911270
makakilo city,21.3469,-158.0858,71.19,89,8,6.31,US,1634911271
bani,18.2833,-70.3333,82.85,73,21,7.85,DO,1634911271
agadir,30.4202,-9.5982,77.45,62,12,8.55,MA,1634911076
awbari,26.5921,12.7805,88.59,16,99,14.18,LY,1634911272
torbay,47.6666,-52.7314,49.06,73,8,5.99,CA,1634911215
chara,56.9064,118.2631,33.48,68,36,3.18,RU,1634911272
kulhudhuffushi,6.6221,73.07,82.17,75,78,7.16,MV,1634911273
yar-sale,66.8333,70.8333,28.53,86,100,7.78,RU,1634911273
dingle,10.9995,122.6711,75.13,95,100,5.28,PH,1634911273
boca do acre,-8.7522,-67.3978,89.91,49,100,4.18,BR,1634911274
kasongo-lunda,-6.4667,16.8167,87.37,56,66,3.87,CD,1634911274
buenos aires,-34.6132,-58.3772,73.35,51,0,5.75,AR,1634911140
bonthe,7.5264,-12.505,82.8,74,100,10.74,SL,1634911275
mayor pablo lagerenza,-19.9309,-60.7718,95.81,31,8,9.33,PY,1634911275
san jose iturbide,21.0,-100.3833,54.66,84,80,4.7,MX,1634911276
cherskiy,68.75,161.3,-4.14,100,100,2.95,RU,1634911276
santa rosa,14.3122,121.1114,82.15,76,65,7.38,PH,1634911276
port lincoln,-34.7333,135.8667,55.42,80,3,11.16,AU,1634911277
leshukonskoye,64.8989,45.7622,33.58,98,100,7.67,RU,1634911277
el bagre,7.5927,-74.8086,77.36,92,96,2.06,CO,1634911278
igaracu do tiete,-22.5092,-48.5578,80.24,36,0,4.43,BR,1634911278
obo,5.3998,26.4869,79.79,72,88,2.24,CF,1634911279
unai,-16.3575,-46.9061,87.93,45,9,3.38,BR,1634911279
kamenka,51.3223,42.7678,57.9,61,50,15.26,RU,1634911038
bumba,2.1833,22.4667,82.27,68,95,3.4,CD,1634911280
broome,42.2506,-75.833,50.97,77,90,1.01,US,1634911280
okhotsk,59.3833,143.3,19.65,94,100,9.91,RU,1634911280
laje,-10.1833,-40.9667,81.21,60,100,8.28,BR,1634911281
novoagansk,61.9449,76.6625,33.78,95,100,17.31,RU,1634911281
lusambo,-4.9667,23.45,83.53,56,100,1.7,CD,1634911282
sorsk,54.0033,90.2467,41.2,80,100,8.68,RU,1634911282
romny,50.751,33.4747,56.98,51,3,14.25,UA,1634911283
asyut,27.181,31.1837,84.38,29,1,16.75,EG,1634911025
zion,42.4461,-87.8328,40.33,83,100,7.11,US,1634911022
punta alta,-38.8759,-62.0736,62.67,49,78,15.17,AR,1634911283
morgan hill,37.1305,-121.6544,57.49,88,90,3.44,US,1634911284
finschhafen,-6.6024,147.8681,78.82,78,100,4.12,PG,1634911284
hervey bay,-25.2986,152.8535,76.03,87,13,15.48,AU,1634911284
cervo,43.6702,-7.4101,63.97,63,75,9.62,ES,1634911285
manta,-0.95,-80.7333,73.08,84,100,11.32,EC,1634911285
sitka,57.0531,-135.33,46.56,91,100,7.9,US,1634911286
tashtyp,52.7939,89.8983,41.7,83,100,14.67,RU,1634911286
slave lake,55.2834,-114.769,31.42,79,98,14.61,CA,1634911286
dhidhdhoo,6.8833,73.1,82.0,75,100,5.86,MV,1634911287
ojinaga,29.5667,-104.4167,63.55,63,1,5.75,MX,1634911287
kaabong,3.4836,34.1492,76.66,43,100,13.6,UG,1634911288
portland,45.5234,-122.6762,50.81,92,100,5.01,US,1634911236
lannion,48.75,-3.4167,55.47,67,90,9.22,FR,1634911288
villa guerrero,18.8667,-99.65,58.5,86,100,2.91,MX,1634911288
olafsvik,64.8945,-23.7142,41.34,93,100,20.67,IS,1634911289
sao francisco do sul,-26.2433,-48.6381,77.11,59,0,5.46,BR,1634911289
barcelona,41.3888,2.159,69.22,66,20,1.01,ES,1634911089
narsaq,60.9167,-46.05,37.62,83,100,4.36,GL,1634911290
alofi,-19.0595,-169.9187,73.81,67,100,17.6,NU,1634911290
hay river,60.8156,-115.7999,33.78,75,40,5.75,CA,1634911184
luwuk,-0.9516,122.7875,78.98,83,94,3.13,ID,1634911291
maniitsoq,65.4167,-52.9,29.79,53,0,10.74,GL,1634911291
los algarrobos,8.5,-82.4333,86.45,78,11,2.59,PA,1634911292
ozernovskiy,51.5,156.5167,39.09,68,85,14.03,RU,1634911292
chapais,49.7834,-74.8492,33.58,86,98,11.12,CA,1634911292
erbaa,40.6689,36.5675,68.16,33,0,2.57,TR,1634911293
plainview,40.7765,-73.4673,64.71,67,1,1.01,US,1634911293
salamanca,40.8333,-6.0,50.41,44,0,15.99,ES,1634911017
boa vista,2.8197,-60.6733,78.78,83,90,4.61,BR,1634911294
victor harbor,-35.5667,138.6167,54.25,91,29,7.47,AU,1634911294
red bluff,40.1785,-122.2358,56.34,94,90,4.61,US,1634911295
baoro,5.6667,15.9667,77.34,81,99,3.83,CF,1634911295
roma,43.2128,-75.4557,50.76,93,90,1.01,US,1634911295
visby,57.6409,18.296,46.81,66,40,13.8,SE,1634911296
bjornevatn,69.6672,29.9847,30.54,86,75,14.97,NO,1634911296
kohlu,29.8962,69.252,73.27,16,0,6.24,PK,1634911296
akdepe,42.0551,59.3788,51.8,29,17,7.29,TM,1634911297
ongandjera,-17.8833,15.0667,93.88,13,4,11.79,NA,1634911297
quelimane,-17.8786,36.8883,82.35,44,20,14.97,MZ,1634911298
ballina,-28.8667,153.5667,66.83,96,30,9.35,AU,1634911298
tigil,57.8,158.6667,28.04,97,100,5.99,RU,1634911298
mahajanga,-15.7167,46.3167,82.42,65,20,12.66,MG,1634911299
clinton,42.587,-82.9199,42.48,77,100,1.01,US,1634911100
itambe,-15.245,-40.6244,79.66,65,100,4.43,BR,1634911234
digha,21.6833,87.55,78.62,62,2,0.78,IN,1634911299
tazovskiy,67.4667,78.7,24.39,95,98,9.73,RU,1634911300
lavrentiya,65.5833,-171.0,23.38,84,100,12.33,RU,1634911300
phirangipuram,16.3,80.2667,87.37,72,52,4.94,IN,1634911300
redding,40.5865,-122.3917,55.71,88,100,1.99,US,1634911113
nome,64.5011,-165.4064,32.07,70,90,14.97,US,1634911301
nipawin,53.3668,-104.0009,15.84,100,1,4.61,CA,1634911301
mattru,7.6244,-11.8332,82.15,82,96,6.31,SL,1634911302
port blair,11.6667,92.75,81.72,81,100,1.99,IN,1634911302
sakaiminato,35.55,133.2333,58.5,68,100,19.13,JP,1634911302
dunhua,43.3725,128.2425,32.47,69,0,4.63,CN,1634911303
guatire,10.4762,-66.5427,83.19,69,100,4.41,VE,1634911303
coihaique,-45.5752,-72.0662,48.38,48,9,10.13,CL,1634911304
taranagar,28.6709,75.0351,83.91,30,0,9.64,IN,1634911304
lutry,46.5024,6.6865,57.43,58,95,5.99,CH,1634911305
sorong,-0.8833,131.25,78.62,86,93,5.88,ID,1634911305
zhangjiakou,40.81,114.8794,42.33,39,0,2.89,CN,1634911305
peno,56.9262,32.7426,43.38,68,45,16.62,RU,1634911306
hovd,48.0056,91.6419,37.63,42,8,0.89,MN,1634911306
saint-georges,12.0564,-61.7485,85.68,74,20,21.85,GD,1634911102
petropavlovsk-kamchatskiy,53.0452,158.6483,27.25,78,54,11.05,RU,1634911307
champasak,14.75,106.0,73.49,98,84,2.13,LA,1634911307
eydhafushi,5.1033,73.0708,81.81,77,89,8.84,MV,1634911307
muli,2.9167,73.5667,82.67,68,15,8.63,MV,1634911308
dungarpur,23.8333,73.7167,77.13,48,0,5.19,IN,1634911308
gijon,43.5357,-5.6615,59.61,75,100,3.0,ES,1634911309
bafq,31.6128,55.4107,65.86,23,0,14.29,IR,1634911309
kamaishi,39.2667,141.8833,50.43,73,97,5.26,JP,1634911309
grindavik,63.8424,-22.4338,43.27,93,75,21.85,IS,1634911310
skibbereen,51.55,-9.2667,53.4,73,100,11.65,IE,1634911310
havre-saint-pierre,50.2334,-63.5986,43.16,87,90,12.66,CA,1634911311
krasnyy kholm,58.0607,37.1203,44.38,69,46,18.75,RU,1634911311
japura,-0.3167,102.35,75.97,93,100,1.12,ID,1634911312
morondava,-20.2833,44.2833,76.15,65,11,12.26,MG,1634911312
marrakesh,31.6315,-8.0083,73.47,56,75,2.3,MA,1634911234
kaniama,-7.5667,24.1833,76.51,76,100,4.43,CD,1634911312
bourail,-21.5667,165.4833,71.19,88,66,3.94,NC,1634911313
namatanai,-3.6667,152.4333,77.85,81,97,4.61,PG,1634911313
ribeira brava,32.65,-17.0667,73.56,73,89,7.14,PT,1634911314
muskegon,43.3,-86.1334,44.46,85,75,0.0,US,1634911190
guerrero negro,27.9769,-114.0611,65.44,86,38,8.84,MX,1634911314
biak,-0.9131,122.8766,78.12,80,93,2.46,ID,1634911315
muyezerskiy,63.9333,31.65,32.59,97,100,16.02,RU,1634911315
naliya,23.2667,68.8333,79.68,63,13,13.56,IN,1634911315
bahia blanca,-38.7196,-62.2724,64.69,42,93,13.06,AR,1634911197
fortuna,40.5982,-124.1573,52.34,75,40,5.01,US,1634911316
nacala,-14.5428,40.6728,80.26,54,62,11.39,MZ,1634911316
bukan,36.521,46.2089,63.05,28,0,9.66,IR,1634911317
nha trang,12.25,109.1833,80.6,89,20,6.46,VN,1634911254
uri,34.0833,74.0333,58.15,59,98,2.39,IN,1634911317
yate,51.5407,-2.4184,54.99,73,83,1.99,GB,1634911246
xuddur,4.1213,43.8894,77.68,67,82,4.52,SO,1634911318
gushi,34.6425,109.5843,53.53,61,99,5.32,CN,1634911318
sursk,53.0754,45.6846,54.01,68,99,17.31,RU,1634911318
camacha,33.0833,-16.3333,70.97,60,40,16.11,PT,1634911319
orje,59.4802,11.6602,49.95,48,73,8.9,NO,1634911319
padang,-0.9492,100.3543,78.85,85,100,4.45,ID,1634911320
ahar,38.4774,47.0699,55.18,31,0,1.16,IR,1634911320
olavarria,-36.8927,-60.3225,59.02,94,100,6.55,AR,1634911321
tailai,46.3833,123.4,42.71,43,0,6.71,CN,1634911321
vazante,-17.9869,-46.9078,85.66,43,3,5.35,BR,1634911322
siena,43.2167,11.4,65.32,83,86,3.58,IT,1634911323
dire dawa,9.5931,41.8661,81.48,30,96,15.21,ET,1634911323
virginia beach,36.8529,-75.978,67.46,86,32,3.0,US,1634911108
ahipara,-35.1667,173.1667,59.85,94,100,18.45,NZ,1634911324
matucana,-11.85,-76.4,41.18,49,50,2.73,PE,1634911325
el rosal,4.8531,-74.26,58.86,72,73,3.11,CO,1634911325
gerash,27.6652,54.1371,80.01,26,0,5.7,IR,1634911326
verkhoyansk,67.5447,133.385,7.92,98,96,2.66,RU,1634911326
naze,28.3667,129.4833,65.46,63,35,18.21,JP,1634911326
twin falls,42.3505,-114.6445,57.54,36,1,11.5,US,1634911327
kamina,-8.7386,24.9906,81.0,51,98,3.24,CD,1634911327
meulaboh,4.1363,96.1285,77.32,89,100,7.54,ID,1634911328
willowmore,-33.2926,23.4895,70.7,28,30,23.64,ZA,1634911328
izumo,35.3667,132.7667,54.68,83,100,12.93,JP,1634911329
immokalee,26.4187,-81.4173,78.66,89,1,5.75,US,1634911329
balkhash,46.844,74.9804,42.98,39,90,14.54,KZ,1634911329
akyab,20.15,92.9,80.64,73,88,5.06,MM,1634911330
salvador,13.8333,-88.9167,73.8,93,97,2.68,SV,1634911330
antalaha,-14.9003,50.2788,77.77,82,93,4.45,MG,1634911331
port augusta,-32.5,137.7667,63.72,81,7,17.58,AU,1634911085
berlevag,70.8578,29.0864,31.95,86,75,14.97,NO,1634911331
the valley,18.217,-63.0578,86.83,62,20,19.24,AI,1634911332
luorong,24.4058,109.6086,56.88,72,100,11.65,CN,1634911332
tongling,30.95,117.7833,54.68,69,98,4.12,CN,1634911332
taraz,42.9,71.3667,41.41,75,90,6.71,KZ,1634911333
mon,26.75,95.1,63.99,98,18,3.4,IN,1634911333
cimitarra,6.3142,-73.9497,80.35,77,92,2.04,CO,1634911334
arriaga,16.2333,-93.9,77.47,89,100,5.14,MX,1634911334
ngunguru,-35.6167,174.5,59.16,85,100,24.99,NZ,1634911334
paris,48.8534,2.3488,55.45,68,90,5.01,FR,1634910918
ko samui,9.5357,99.9357,82.44,71,97,1.95,TH,1634911335
butembo,0.15,29.2833,64.92,94,100,1.59,CD,1634911335
pangnirtung,66.1451,-65.7125,25.3,76,39,0.11,CA,1634911336
tessalit,20.1986,1.0114,96.89,14,2,8.39,ML,1634911336
